[][][][][{"name": "\u6850\u6893\u6797", "location": {"lat": 30.621375, "lng": 104.073642}, "address": "\u5730\u94c11\u53f7\u7ebf", "province": "\u56db\u5ddd\u7701", "city": "\u6210\u90fd\u5e02", "area": "\u6b66\u4faf\u533a", "detail": 1, "uid": "2b37f1b0881fe9fee6073891", "detail_info": {"tag": "\u5730\u94c1\u7ad9", "children": []}}, {"name": "\u767d\u679c\u6797", "location": {"lat": 30.679958, "lng": 104.039619}, "address": "\u5730\u94c12\u53f7\u7ebf", "province": "\u56db\u5ddd\u7701", "city": "\u6210\u90fd\u5e02", "area": "\u91d1\u725b\u533a", "detail": 1, "uid": "927de4f0f7fb2fddbbdf8f1d", "detail_info": {"tag": "\u5730\u94c1\u7ad9", "children": []}}, {"name": "\u8700\u6c49\u8def\u4e1c", "location": {"lat": 30.689167, "lng": 104.035524}, "address": "\u5730\u94c12\u53f7\u7ebf", "province": "\u56db\u5ddd\u7701", "city": "\u6210\u90fd\u5e02", "area": "\u91d1\u725b\u533a", "detail": 1, "uid": "868c291028f771b516948e1d", "detail_info": {"tag": "\u5730\u94c1\u7ad9", "children": []}}, {"name": "\u8349\u5802\u5317\u8def", "location": {"lat": 30.675043, "lng": 104.035794}, "address": "\u5730\u94c14\u53f7\u7ebf", "province": "\u56db\u5ddd\u7701", "city": "\u6210\u90fd\u5e02", "area": "\u9752\u7f8a\u533a", "detail": 1, "uid": "52c7bd7722962be25abbbc99", "detail_info": {"tag": "\u5730\u94c1\u7ad9", "children": []}}, {"name": "\u91d1\u6c99\u535a\u7269\u9986", "location": {"lat": 30.683289, "lng": 104.018944}, "address": "\u5730\u94c17\u53f7\u7ebf", "province": "\u56db\u5ddd\u7701", "city": "\u6210\u90fd\u5e02", "area": "\u9752\u7f8a\u533a", "detail": 1, "uid": "1937295cab83b4128b2fb5e6", "detail_info": {"tag": "\u5730\u94c1\u7ad9", "children": []}}, {"name": "\u897f\u5357\u8d22\u5927", "location": {"lat": 30.676565, "lng": 104.02694}, "address": "\u5730\u94c14\u53f7\u7ebf", "province": "\u56db\u5ddd\u7701", "city": "\u6210\u90fd\u5e02", "area": "\u9752\u7f8a\u533a", "detail": 1, "uid": "d4e25fe82e9f20dd7069d38c", "detail_info": {"tag": "\u5730\u94c1\u7ad9", "children": []}}, {"name": "\u6587\u5316\u5bab", "location": {"lat": 30.67821, "lng": 104.016176}, "address": "\u5730\u94c14\u53f7\u7ebf;\u5730\u94c17\u53f7\u7ebf", "province": "\u56db\u5ddd\u7701", "city": "\u6210\u90fd\u5e02", "area": "\u9752\u7f8a\u533a", "detail": 1, "uid": "569d8fe82f64d171430245ac", "detail_info": {"tag": "\u5730\u94c1\u7ad9", "children": []}}, {"name": "\u8863\u51a0\u5e99", "location": {"lat": 30.640698, "lng": 104.05865}, "address": "\u5730\u94c13\u53f7\u7ebf", "province": "\u56db\u5ddd\u7701", "city": "\u6210\u90fd\u5e02", "area": "\u6b66\u4faf\u533a", "detail": 1, "uid": "44241768fd612534afee7a39", "detail_info": {"tag": "\u5730\u94c1\u7ad9", "children": []}}, {"name": "\u901a\u60e0\u95e8", "location": {"lat": 30.66842, "lng": 104.054968}, "address": "\u5730\u94c12\u53f7\u7ebf", "province": "\u56db\u5ddd\u7701", "city": "\u6210\u90fd\u5e02", "area": "\u9752\u7f8a\u533a", "detail": 1, "uid": "8291659404d8b0f08d1a891d", "detail_info": {"tag": "\u5730\u94c1\u7ad9", "children": []}}, {"name": "\u7ea2\u724c\u697c", "location": {"lat": 30.640816, "lng": 104.036047}, "address": "\u5730\u94c13\u53f7\u7ebf", "province": "\u56db\u5ddd\u7701", "city": "\u6210\u90fd\u5e02", "area": "\u6b66\u4faf\u533a", "detail": 1, "uid": "287e2642e7c620e3ab059d05", "detail_info": {"tag": "\u5730\u94c1\u7ad9", "children": []}}, {"name": "\u6b66\u4faf\u5927\u9053", "location": {"lat": 30.6434, "lng": 104.019305}, "address": "\u5730\u94c17\u53f7\u7ebf", "province": "\u56db\u5ddd\u7701", "city": "\u6210\u90fd\u5e02", "area": "\u6b66\u4faf\u533a", "detail": 1, "uid": "8152d3000c14babd8bf15d96", "detail_info": {"tag": "\u5730\u94c1\u7ad9", "children": []}}, {"name": "\u4e2d\u533b\u5927\u7701\u533b\u9662", "location": {"lat": 30.672244, "lng": 104.047241}, "address": "\u5730\u94c12\u53f7\u7ebf;\u5730\u94c14\u53f7\u7ebf", "province": "\u56db\u5ddd\u7701", "city": "\u6210\u90fd\u5e02", "area": "\u91d1\u725b\u533a", "detail": 1, "uid": "50a777e1ab4985b2725e80d9", "detail_info": {"tag": "\u5730\u94c1\u7ad9", "children": []}}, {"name": "\u592a\u5e73\u56ed", "location": {"lat": 30.631524, "lng": 104.027818}, "address": "\u5730\u94c110\u53f7\u7ebf;\u5730\u94c13\u53f7\u7ebf;\u5730\u94c17\u53f7\u7ebf", "province": "\u56db\u5ddd\u7701", "city": "\u6210\u90fd\u5e02", "area": "\u6b66\u4faf\u533a", "detail": 1, "uid": "9012d1445adb07024657262c", "detail_info": {"tag": "\u5730\u94c1\u7ad9", "children": []}}, {"name": "\u9f99\u722a\u5830", "location": {"lat": 30.658023, "lng": 104.014938}, "address": "\u5730\u94c17\u53f7\u7ebf", "province": "\u56db\u5ddd\u7701", "city": "\u6210\u90fd\u5e02", "area": "\u6b66\u4faf\u533a", "detail": 1, "uid": "97eb02be28499612882fb5c6", "detail_info": {"tag": "\u5730\u94c1\u7ad9", "children": []}}, {"name": "\u4e1c\u5761\u8def", "location": {"lat": 30.666863, "lng": 104.014457}, "address": "\u5730\u94c17\u53f7\u7ebf", "province": "\u56db\u5ddd\u7701", "city": "\u6210\u90fd\u5e02", "area": "\u9752\u7f8a\u533a", "detail": 1, "uid": "4621ded49279f6b9130daa21", "detail_info": {"tag": "\u5730\u94c1\u7ad9", "children": []}}, {"name": "\u9ad8\u670b\u5927\u9053", "location": {"lat": 30.623609, "lng": 104.039177}, "address": "\u5730\u94c17\u53f7\u7ebf", "province": "\u56db\u5ddd\u7701", "city": "\u6210\u90fd\u5e02", "area": "\u6b66\u4faf\u533a", "detail": 1, "uid": "d796eb12da5ef211343a7171", "detail_info": {"tag": "\u5730\u94c1\u7ad9", "children": []}}, {"name": "\u795e\u5dde\u79df\u8f66(\u8700\u6c49\u8def\u4e1c\u5730\u94c1\u7ad9\u9001\u8f66\u70b9)", "location": {"lat": 30.690858, "lng": 104.034711}, "address": "\u6210\u90fd\u5e02\u91d1\u725b\u533a\u5730\u94c12\u53f7\u7ebf\u8700\u6c49\u8def\u4e1c\u7ad9F\u51fa\u53e3\u8700\u901a\u8857\u62db\u5546\u94f6\u884c\u95e8\u53e3", "province": "\u56db\u5ddd\u7701", "city": "\u6210\u90fd\u5e02", "area": "\u91d1\u725b\u533a", "telephone": "(028)87523183", "detail": 1, "uid": "116557a37b159f909ee321dd", "detail_info": {"tag": "\u6c7d\u8f66\u670d\u52a1;\u6c7d\u8f66\u79df\u8d41", "type": "life", "detail_url": "http://api.map.baidu.com/place/detail?uid=116557a37b159f909ee321dd&output=html&source=placeapi_v2", "image_num": "1", "children": []}}][{"name": "\u795e\u5dde\u79df\u8f66(\u725b\u5e02\u53e3\u5730\u94c1\u7ad9\u9001\u8f66\u70b9)", "location": {"lat": 30.64305, "lng": 104.114065}, "address": "\u6210\u90fd\u5e02\u9526\u6c5f\u533a\u725b\u5e02\u53e3\u8def\u5730\u94c1\u7ad9A2\u53e3\u505c\u8f66\u573a", "province": "\u56db\u5ddd\u7701", "city": "\u6210\u90fd\u5e02", "area": "\u9526\u6c5f\u533a", "telephone": "(028)84421150", "detail": 1, "uid": "00d7701fc434290b33621229", "detail_info": {"tag": "\u6c7d\u8f66\u670d\u52a1;\u6c7d\u8f66\u79df\u8d41", "type": "life", "detail_url": "http://api.map.baidu.com/place/detail?uid=00d7701fc434290b33621229&output=html&source=placeapi_v2", "image_num": "1", "children": []}}][][][][][][][][{"name": "\u6850\u6893\u6797", "location": {"lat": 30.621375, "lng": 104.073642}, "address": "\u5730\u94c11\u53f7\u7ebf", "province": "\u56db\u5ddd\u7701", "city": "\u6210\u90fd\u5e02", "area": "\u6b66\u4faf\u533a", "detail": 1, "uid": "2b37f1b0881fe9fee6073891", "detail_info": {"tag": "\u5730\u94c1\u7ad9", "children": []}}, {"name": "\u767d\u679c\u6797", "location": {"lat": 30.679958, "lng": 104.039619}, "address": "\u5730\u94c12\u53f7\u7ebf", "province": "\u56db\u5ddd\u7701", "city": "\u6210\u90fd\u5e02", "area": "\u91d1\u725b\u533a", "detail": 1, "uid": "927de4f0f7fb2fddbbdf8f1d", "detail_info": {"tag": "\u5730\u94c1\u7ad9", "children": []}}, {"name": "\u8700\u6c49\u8def\u4e1c", "location": {"lat": 30.689167, "lng": 104.035524}, "address": "\u5730\u94c12\u53f7\u7ebf", "province": "\u56db\u5ddd\u7701", "city": "\u6210\u90fd\u5e02", "area": "\u91d1\u725b\u533a", "detail": 1, "uid": "868c291028f771b516948e1d", "detail_info": {"tag": "\u5730\u94c1\u7ad9", "children": []}}, {"name": "\u8349\u5802\u5317\u8def", "location": {"lat": 30.675043, "lng": 104.035794}, "address": "\u5730\u94c14\u53f7\u7ebf", "province": "\u56db\u5ddd\u7701", "city": "\u6210\u90fd\u5e02", "area": "\u9752\u7f8a\u533a", "detail": 1, "uid": "52c7bd7722962be25abbbc99", "detail_info": {"tag": "\u5730\u94c1\u7ad9", "children": []}}, {"name": "\u91d1\u6c99\u535a\u7269\u9986", "location": {"lat": 30.683289, "lng": 104.018944}, "address": "\u5730\u94c17\u53f7\u7ebf", "province": "\u56db\u5ddd\u7701", "city": "\u6210\u90fd\u5e02", "area": "\u9752\u7f8a\u533a", "detail": 1, "uid": "1937295cab83b4128b2fb5e6", "detail_info": {"tag": "\u5730\u94c1\u7ad9", "children": []}}, {"name": "\u897f\u5357\u8d22\u5927", "location": {"lat": 30.676565, "lng": 104.02694}, "address": "\u5730\u94c14\u53f7\u7ebf", "province": "\u56db\u5ddd\u7701", "city": "\u6210\u90fd\u5e02", "area": "\u9752\u7f8a\u533a", "detail": 1, "uid": "d4e25fe82e9f20dd7069d38c", "detail_info": {"tag": "\u5730\u94c1\u7ad9", "children": []}}, {"name": "\u6587\u5316\u5bab", "location": {"lat": 30.67821, "lng": 104.016176}, "address": "\u5730\u94c14\u53f7\u7ebf;\u5730\u94c17\u53f7\u7ebf", "province": "\u56db\u5ddd\u7701", "city": "\u6210\u90fd\u5e02", "area": "\u9752\u7f8a\u533a", "detail": 1, "uid": "569d8fe82f64d171430245ac", "detail_info": {"tag": "\u5730\u94c1\u7ad9", "children": []}}, {"name": "\u8863\u51a0\u5e99", "location": {"lat": 30.640698, "lng": 104.05865}, "address": "\u5730\u94c13\u53f7\u7ebf", "province": "\u56db\u5ddd\u7701", "city": "\u6210\u90fd\u5e02", "area": "\u6b66\u4faf\u533a", "detail": 1, "uid": "44241768fd612534afee7a39", "detail_info": {"tag": "\u5730\u94c1\u7ad9", "children": []}}, {"name": "\u901a\u60e0\u95e8", "location": {"lat": 30.66842, "lng": 104.054968}, "address": "\u5730\u94c12\u53f7\u7ebf", "province": "\u56db\u5ddd\u7701", "city": "\u6210\u90fd\u5e02", "area": "\u9752\u7f8a\u533a", "detail": 1, "uid": "8291659404d8b0f08d1a891d", "detail_info": {"tag": "\u5730\u94c1\u7ad9", "children": []}}, {"name": "\u7ea2\u724c\u697c", "location": {"lat": 30.640816, "lng": 104.036047}, "address": "\u5730\u94c13\u53f7\u7ebf", "province": "\u56db\u5ddd\u7701", "city": "\u6210\u90fd\u5e02", "area": "\u6b66\u4faf\u533a", "detail": 1, "uid": "287e2642e7c620e3ab059d05", "detail_info": {"tag": "\u5730\u94c1\u7ad9", "children": []}}, {"name": "\u6b66\u4faf\u5927\u9053", "location": {"lat": 30.6434, "lng": 104.019305}, "address": "\u5730\u94c17\u53f7\u7ebf", "province": "\u56db\u5ddd\u7701", "city": "\u6210\u90fd\u5e02", "area": "\u6b66\u4faf\u533a", "detail": 1, "uid": "8152d3000c14babd8bf15d96", "detail_info": {"tag": "\u5730\u94c1\u7ad9", "children": []}}, {"name": "\u4e2d\u533b\u5927\u7701\u533b\u9662", "location": {"lat": 30.672244, "lng": 104.047241}, "address": "\u5730\u94c12\u53f7\u7ebf;\u5730\u94c14\u53f7\u7ebf", "province": "\u56db\u5ddd\u7701", "city": "\u6210\u90fd\u5e02", "area": "\u91d1\u725b\u533a", "detail": 1, "uid": "50a777e1ab4985b2725e80d9", "detail_info": {"tag": "\u5730\u94c1\u7ad9", "children": []}}, {"name": "\u592a\u5e73\u56ed", "location": {"lat": 30.631524, "lng": 104.027818}, "address": "\u5730\u94c110\u53f7\u7ebf;\u5730\u94c13\u53f7\u7ebf;\u5730\u94c17\u53f7\u7ebf", "province": "\u56db\u5ddd\u7701", "city": "\u6210\u90fd\u5e02", "area": "\u6b66\u4faf\u533a", "detail": 1, "uid": "9012d1445adb07024657262c", "detail_info": {"tag": "\u5730\u94c1\u7ad9", "children": []}}, {"name": "\u9f99\u722a\u5830", "location": {"lat": 30.658023, "lng": 104.014938}, "address": "\u5730\u94c17\u53f7\u7ebf", "province": "\u56db\u5ddd\u7701", "city": "\u6210\u90fd\u5e02", "area": "\u6b66\u4faf\u533a", "detail": 1, "uid": "97eb02be28499612882fb5c6", "detail_info": {"tag": "\u5730\u94c1\u7ad9", "children": []}}, {"name": "\u4e1c\u5761\u8def", "location": {"lat": 30.666863, "lng": 104.014457}, "address": "\u5730\u94c17\u53f7\u7ebf", "province": "\u56db\u5ddd\u7701", "city": "\u6210\u90fd\u5e02", "area": "\u9752\u7f8a\u533a", "detail": 1, "uid": "4621ded49279f6b9130daa21", "detail_info": {"tag": "\u5730\u94c1\u7ad9", "children": []}}, {"name": "\u9ad8\u670b\u5927\u9053", "location": {"lat": 30.623609, "lng": 104.039177}, "address": "\u5730\u94c17\u53f7\u7ebf", "province": "\u56db\u5ddd\u7701", "city": "\u6210\u90fd\u5e02", "area": "\u6b66\u4faf\u533a", "detail": 1, "uid": "d796eb12da5ef211343a7171", "detail_info": {"tag": "\u5730\u94c1\u7ad9", "children": []}}, {"name": "\u795e\u5dde\u79df\u8f66(\u8700\u6c49\u8def\u4e1c\u5730\u94c1\u7ad9\u9001\u8f66\u70b9)", "location": {"lat": 30.690858, "lng": 104.034711}, "address": "\u6210\u90fd\u5e02\u91d1\u725b\u533a\u5730\u94c12\u53f7\u7ebf\u8700\u6c49\u8def\u4e1c\u7ad9F\u51fa\u53e3\u8700\u901a\u8857\u62db\u5546\u94f6\u884c\u95e8\u53e3", "province": "\u56db\u5ddd\u7701", "city": "\u6210\u90fd\u5e02", "area": "\u91d1\u725b\u533a", "telephone": "(028)87523183", "detail": 1, "uid": "116557a37b159f909ee321dd", "detail_info": {"tag": "\u6c7d\u8f66\u670d\u52a1;\u6c7d\u8f66\u79df\u8d41", "type": "life", "detail_url": "http://api.map.baidu.com/place/detail?uid=116557a37b159f909ee321dd&output=html&source=placeapi_v2", "image_num": "1", "children": []}}][{"name": "\u795e\u5dde\u79df\u8f66(\u725b\u5e02\u53e3\u5730\u94c1\u7ad9\u9001\u8f66\u70b9)", "location": {"lat": 30.64305, "lng": 104.114065}, "address": "\u6210\u90fd\u5e02\u9526\u6c5f\u533a\u725b\u5e02\u53e3\u8def\u5730\u94c1\u7ad9A2\u53e3\u505c\u8f66\u573a", "province": "\u56db\u5ddd\u7701", "city": "\u6210\u90fd\u5e02", "area": "\u9526\u6c5f\u533a", "telephone": "(028)84421150", "detail": 1, "uid": "00d7701fc434290b33621229", "detail_info": {"tag": "\u6c7d\u8f66\u670d\u52a1;\u6c7d\u8f66\u79df\u8d41", "type": "life", "detail_url": "http://api.map.baidu.com/place/detail?uid=00d7701fc434290b33621229&output=html&source=placeapi_v2", "image_num": "1", "children": []}}][][][][][][][][{"name": "\u6850\u6893\u6797", "location": {"lat": 30.621375, "lng": 104.073642}, "address": "\u5730\u94c11\u53f7\u7ebf", "province": "\u56db\u5ddd\u7701", "city": "\u6210\u90fd\u5e02", "area": "\u6b66\u4faf\u533a", "detail": 1, "uid": "2b37f1b0881fe9fee6073891", "detail_info": {"tag": "\u5730\u94c1\u7ad9", "children": []}}, {"name": "\u767d\u679c\u6797", "location": {"lat": 30.679958, "lng": 104.039619}, "address": "\u5730\u94c12\u53f7\u7ebf", "province": "\u56db\u5ddd\u7701", "city": "\u6210\u90fd\u5e02", "area": "\u91d1\u725b\u533a", "detail": 1, "uid": "927de4f0f7fb2fddbbdf8f1d", "detail_info": {"tag": "\u5730\u94c1\u7ad9", "children": []}}, {"name": "\u8700\u6c49\u8def\u4e1c", "location": {"lat": 30.689167, "lng": 104.035524}, "address": "\u5730\u94c12\u53f7\u7ebf", "province": "\u56db\u5ddd\u7701", "city": "\u6210\u90fd\u5e02", "area": "\u91d1\u725b\u533a", "detail": 1, "uid": "868c291028f771b516948e1d", "detail_info": {"tag": "\u5730\u94c1\u7ad9", "children": []}}, {"name": "\u8349\u5802\u5317\u8def", "location": {"lat": 30.675043, "lng": 104.035794}, "address": "\u5730\u94c14\u53f7\u7ebf", "province": "\u56db\u5ddd\u7701", "city": "\u6210\u90fd\u5e02", "area": "\u9752\u7f8a\u533a", "detail": 1, "uid": "52c7bd7722962be25abbbc99", "detail_info": {"tag": "\u5730\u94c1\u7ad9", "children": []}}, {"name": "\u91d1\u6c99\u535a\u7269\u9986", "location": {"lat": 30.683289, "lng": 104.018944}, "address": "\u5730\u94c17\u53f7\u7ebf", "province": "\u56db\u5ddd\u7701", "city": "\u6210\u90fd\u5e02", "area": "\u9752\u7f8a\u533a", "detail": 1, "uid": "1937295cab83b4128b2fb5e6", "detail_info": {"tag": "\u5730\u94c1\u7ad9", "children": []}}, {"name": "\u897f\u5357\u8d22\u5927", "location": {"lat": 30.676565, "lng": 104.02694}, "address": "\u5730\u94c14\u53f7\u7ebf", "province": "\u56db\u5ddd\u7701", "city": "\u6210\u90fd\u5e02", "area": "\u9752\u7f8a\u533a", "detail": 1, "uid": "d4e25fe82e9f20dd7069d38c", "detail_info": {"tag": "\u5730\u94c1\u7ad9", "children": []}}, {"name": "\u6587\u5316\u5bab", "location": {"lat": 30.67821, "lng": 104.016176}, "address": "\u5730\u94c14\u53f7\u7ebf;\u5730\u94c17\u53f7\u7ebf", "province": "\u56db\u5ddd\u7701", "city": "\u6210\u90fd\u5e02", "area": "\u9752\u7f8a\u533a", "detail": 1, "uid": "569d8fe82f64d171430245ac", "detail_info": {"tag": "\u5730\u94c1\u7ad9", "children": []}}, {"name": "\u8863\u51a0\u5e99", "location": {"lat": 30.640698, "lng": 104.05865}, "address": "\u5730\u94c13\u53f7\u7ebf", "province": "\u56db\u5ddd\u7701", "city": "\u6210\u90fd\u5e02", "area": "\u6b66\u4faf\u533a", "detail": 1, "uid": "44241768fd612534afee7a39", "detail_info": {"tag": "\u5730\u94c1\u7ad9", "children": []}}, {"name": "\u901a\u60e0\u95e8", "location": {"lat": 30.66842, "lng": 104.054968}, "address": "\u5730\u94c12\u53f7\u7ebf", "province": "\u56db\u5ddd\u7701", "city": "\u6210\u90fd\u5e02", "area": "\u9752\u7f8a\u533a", "detail": 1, "uid": "8291659404d8b0f08d1a891d", "detail_info": {"tag": "\u5730\u94c1\u7ad9", "children": []}}, {"name": "\u7ea2\u724c\u697c", "location": {"lat": 30.640816, "lng": 104.036047}, "address": "\u5730\u94c13\u53f7\u7ebf", "province": "\u56db\u5ddd\u7701", "city": "\u6210\u90fd\u5e02", "area": "\u6b66\u4faf\u533a", "detail": 1, "uid": "287e2642e7c620e3ab059d05", "detail_info": {"tag": "\u5730\u94c1\u7ad9", "children": []}}, {"name": "\u6b66\u4faf\u5927\u9053", "location": {"lat": 30.6434, "lng": 104.019305}, "address": "\u5730\u94c17\u53f7\u7ebf", "province": "\u56db\u5ddd\u7701", "city": "\u6210\u90fd\u5e02", "area": "\u6b66\u4faf\u533a", "detail": 1, "uid": "8152d3000c14babd8bf15d96", "detail_info": {"tag": "\u5730\u94c1\u7ad9", "children": []}}, {"name": "\u4e2d\u533b\u5927\u7701\u533b\u9662", "location": {"lat": 30.672244, "lng": 104.047241}, "address": "\u5730\u94c12\u53f7\u7ebf;\u5730\u94c14\u53f7\u7ebf", "province": "\u56db\u5ddd\u7701", "city": "\u6210\u90fd\u5e02", "area": "\u91d1\u725b\u533a", "detail": 1, "uid": "50a777e1ab4985b2725e80d9", "detail_info": {"tag": "\u5730\u94c1\u7ad9", "children": []}}, {"name": "\u592a\u5e73\u56ed", "location": {"lat": 30.631524, "lng": 104.027818}, "address": "\u5730\u94c110\u53f7\u7ebf;\u5730\u94c13\u53f7\u7ebf;\u5730\u94c17\u53f7\u7ebf", "province": "\u56db\u5ddd\u7701", "city": "\u6210\u90fd\u5e02", "area": "\u6b66\u4faf\u533a", "detail": 1, "uid": "9012d1445adb07024657262c", "detail_info": {"tag": "\u5730\u94c1\u7ad9", "children": []}}, {"name": "\u9f99\u722a\u5830", "location": {"lat": 30.658023, "lng": 104.014938}, "address": "\u5730\u94c17\u53f7\u7ebf", "province": "\u56db\u5ddd\u7701", "city": "\u6210\u90fd\u5e02", "area": "\u6b66\u4faf\u533a", "detail": 1, "uid": "97eb02be28499612882fb5c6", "detail_info": {"tag": "\u5730\u94c1\u7ad9", "children": []}}, {"name": "\u4e1c\u5761\u8def", "location": {"lat": 30.666863, "lng": 104.014457}, "address": "\u5730\u94c17\u53f7\u7ebf", "province": "\u56db\u5ddd\u7701", "city": "\u6210\u90fd\u5e02", "area": "\u9752\u7f8a\u533a", "detail": 1, "uid": "4621ded49279f6b9130daa21", "detail_info": {"tag": "\u5730\u94c1\u7ad9", "children": []}}, {"name": "\u9ad8\u670b\u5927\u9053", "location": {"lat": 30.623609, "lng": 104.039177}, "address": "\u5730\u94c17\u53f7\u7ebf", "province": "\u56db\u5ddd\u7701", "city": "\u6210\u90fd\u5e02", "area": "\u6b66\u4faf\u533a", "detail": 1, "uid": "d796eb12da5ef211343a7171", "detail_info": {"tag": "\u5730\u94c1\u7ad9", "children": []}}, {"name": "\u795e\u5dde\u79df\u8f66(\u8700\u6c49\u8def\u4e1c\u5730\u94c1\u7ad9\u9001\u8f66\u70b9)", "location": {"lat": 30.690858, "lng": 104.034711}, "address": "\u6210\u90fd\u5e02\u91d1\u725b\u533a\u5730\u94c12\u53f7\u7ebf\u8700\u6c49\u8def\u4e1c\u7ad9F\u51fa\u53e3\u8700\u901a\u8857\u62db\u5546\u94f6\u884c\u95e8\u53e3", "province": "\u56db\u5ddd\u7701", "city": "\u6210\u90fd\u5e02", "area": "\u91d1\u725b\u533a", "telephone": "(028)87523183", "detail": 1, "uid": "116557a37b159f909ee321dd", "detail_info": {"tag": "\u6c7d\u8f66\u670d\u52a1;\u6c7d\u8f66\u79df\u8d41", "type": "life", "detail_url": "http://api.map.baidu.com/place/detail?uid=116557a37b159f909ee321dd&output=html&source=placeapi_v2", "image_num": "1", "children": []}}][{"name": "\u795e\u5dde\u79df\u8f66(\u725b\u5e02\u53e3\u5730\u94c1\u7ad9\u9001\u8f66\u70b9)", "location": {"lat": 30.64305, "lng": 104.114065}, "address": "\u6210\u90fd\u5e02\u9526\u6c5f\u533a\u725b\u5e02\u53e3\u8def\u5730\u94c1\u7ad9A2\u53e3\u505c\u8f66\u573a", "province": "\u56db\u5ddd\u7701", "city": "\u6210\u90fd\u5e02", "area": "\u9526\u6c5f\u533a", "telephone": "(028)84421150", "detail": 1, "uid": "00d7701fc434290b33621229", "detail_info": {"tag": "\u6c7d\u8f66\u670d\u52a1;\u6c7d\u8f66\u79df\u8d41", "type": "life", "detail_url": "http://api.map.baidu.com/place/detail?uid=00d7701fc434290b33621229&output=html&source=placeapi_v2", "image_num": "1", "children": []}}][][][]